[{"id":"BR01","stationName":"動物園","lineNumber":"BR","lineName":"文湖線","lat":24.998197,"lng":121.579338,"neighbors":[{"id":"BR02","distance":2212,"duration":417}]},{"id":"BR02","stationName":"木柵","lineNumber":"BR","lineName":"文湖線","lat":24.998241,"lng":121.573145,"neighbors":[{"id":"BR01","distance":2108,"duration":377},{"id":"BR03","distance":1174,"duration":219}]},{"id":"BR03","stationName":"萬芳社區","lineNumber":"BR","lineName":"文湖線","lat":24.998585,"lng":121.568102,"neighbors":[{"id":"BR02","distance":1163,"duration":263},{"id":"BR04","distance":1248,"duration":197}]},{"id":"BR04","stationName":"萬芳醫院","lineNumber":"BR","lineName":"文湖線","lat":24.999386,"lng":121.558152,"neighbors":[{"id":"BR03","distance":1264,"duration":209},{"id":"BR05","distance":2189,"duration":408}]},{"id":"BR05","stationName":"辛亥","lineNumber":"BR","lineName":"文湖線","lat":25.005475,"lng":121.557107,"neighbors":[{"id":"BR04","distance":1055,"duration":278},{"id":"BR06","distance":3124,"duration":598}]},{"id":"BR06","stationName":"麟光","lineNumber":"BR","lineName":"文湖線","lat":25.018535,"lng":121.558791,"neighbors":[{"id":"BR05","distance":4522,"duration":601},{"id":"BR07","distance":1143,"duration":339}]},{"id":"BR07","stationName":"六張犁","lineNumber":"BR","lineName":"文湖線","lat":25.023777,"lng":121.553115,"neighbors":[{"id":"BR06","distance":953,"duration":211},{"id":"BR08","distance":1484,"duration":428}]},{"id":"BR08","stationName":"科技大樓","lineNumber":"BR","lineName":"文湖線","lat":25.026125,"lng":121.543437,"neighbors":[{"id":"BR07","distance":1153,"duration":280},{"id":"BR09","distance":2149,"duration":430}]},{"id":"BR09","stationName":"大安","lineNumber":"BR","lineName":"文湖線","lat":25.032943,"lng":121.543551,"neighbors":[{"id":"BR08","distance":758,"duration":128},{"id":"BR10","distance":1676,"duration":457}]},{"id":"BR10","stationName":"忠孝復興","lineNumber":"BR","lineName":"文湖線","lat":25.041629,"lng":121.543767,"neighbors":[{"id":"BR09","distance":982,"duration":182},{"id":"BR11","distance":3056,"duration":582}]},{"id":"BR11","stationName":"南京復興","lineNumber":"BR","lineName":"文湖線","lat":25.052319,"lng":121.544011,"neighbors":[{"id":"BR10","distance":1835,"duration":432},{"id":"BR12","distance":1435,"duration":288}]},{"id":"BR12","stationName":"中山國中","lineNumber":"BR","lineName":"文湖線","lat":25.060849,"lng":121.544227,"neighbors":[{"id":"BR11","distance":1288,"duration":327},{"id":"BR13","distance":1278,"duration":250}]},{"id":"BR13","stationName":"松山機場","lineNumber":"BR","lineName":"文湖線","lat":25.063,"lng":121.551996,"neighbors":[{"id":"BR12","distance":1559,"duration":380},{"id":"BR14","distance":3177,"duration":560}]},{"id":"BR14","stationName":"大直","lineNumber":"BR","lineName":"文湖線","lat":25.079477,"lng":121.546895,"neighbors":[{"id":"BR13","distance":3455,"duration":572},{"id":"BR15","distance":1336,"duration":241}]},{"id":"BR15","stationName":"劍南路","lineNumber":"BR","lineName":"文湖線","lat":25.084853,"lng":121.555592,"neighbors":[{"id":"BR14","distance":1651,"duration":306},{"id":"BR16","distance":1260,"duration":216}]},{"id":"BR16","stationName":"西湖","lineNumber":"BR","lineName":"文湖線","lat":25.082133,"lng":121.567213,"neighbors":[{"id":"BR15","distance":2682,"duration":482},{"id":"BR17","distance":834,"duration":132}]},{"id":"BR17","stationName":"港墘","lineNumber":"BR","lineName":"文湖線","lat":25.080028,"lng":121.575081,"neighbors":[{"id":"BR16","distance":1684,"duration":368},{"id":"BR18","distance":1667,"duration":278}]},{"id":"BR18","stationName":"文德","lineNumber":"BR","lineName":"文湖線","lat":25.078532,"lng":121.584761,"neighbors":[{"id":"BR17","distance":1446,"duration":297},{"id":"BR19","distance":1433,"duration":278}]},{"id":"BR19","stationName":"內湖","lineNumber":"BR","lineName":"文湖線","lat":25.083661,"lng":121.594408,"neighbors":[{"id":"BR18","distance":1178,"duration":214},{"id":"BR20","distance":820,"duration":151}]},{"id":"BR20","stationName":"大湖公園","lineNumber":"BR","lineName":"文湖線","lat":25.083845,"lng":121.602141,"neighbors":[{"id":"BR19","distance":1325,"duration":249},{"id":"BR21","distance":1690,"duration":284}]},{"id":"BR21","stationName":"葫洲","lineNumber":"BR","lineName":"文湖線","lat":25.072701,"lng":121.607158,"neighbors":[{"id":"BR20","distance":2532,"duration":449},{"id":"BR22","distance":1639,"duration":454}]},{"id":"BR22","stationName":"東湖","lineNumber":"BR","lineName":"文湖線","lat":25.067147,"lng":121.611445,"neighbors":[{"id":"BR21","distance":1253,"duration":292},{"id":"BR23","distance":2031,"duration":524}]},{"id":"BR23","stationName":"南港軟體園區","lineNumber":"BR","lineName":"文湖線","lat":25.059905,"lng":121.615953,"neighbors":[{"id":"BR22","distance":1042,"duration":170},{"id":"BR24","distance":1313,"duration":249}]},{"id":"BR24","stationName":"南港展覽館","lineNumber":"BR","lineName":"文湖線","lat":25.055288,"lng":121.6175001,"neighbors":[{"id":"BR23","distance":668,"duration":130}]},{"id":"R02","stationName":"象山","lineNumber":"R","lineName":"淡水信義線","lat":25.03283,"lng":121.569576,"neighbors":[{"id":"R03","distance":837,"duration":244}]},{"id":"R03","stationName":"台北101/世貿","lineNumber":"R","lineName":"淡水信義線","lat":25.033102,"lng":121.563292,"neighbors":[{"id":"R02","distance":1446,"duration":283},{"id":"R04","distance":1330,"duration":399}]},{"id":"R04","stationName":"信義安和","lineNumber":"R","lineName":"淡水信義線","lat":25.033326,"lng":121.553526,"neighbors":[{"id":"R03","distance":1496,"duration":346},{"id":"R05","distance":2537,"duration":557}]},{"id":"R05","stationName":"大安","lineNumber":"R","lineName":"淡水信義線","lat":25.032943,"lng":121.543551,"neighbors":[{"id":"R04","distance":1438,"duration":307},{"id":"R06","distance":2826,"duration":496}]},{"id":"R06","stationName":"大安森林公園","lineNumber":"R","lineName":"淡水信義線","lat":25.033396,"lng":121.534882,"neighbors":[{"id":"R05","distance":907,"duration":168},{"id":"R07","distance":2716,"duration":564}]},{"id":"R07","stationName":"東門","lineNumber":"R","lineName":"淡水信義線","lat":25.033847,"lng":121.528739,"neighbors":[{"id":"R06","distance":623,"duration":117},{"id":"R08","distance":1581,"duration":411}]},{"id":"R08","stationName":"中正紀念堂","lineNumber":"R","lineName":"淡水信義線","lat":25.032729,"lng":121.51827,"neighbors":[{"id":"R07","distance":1755,"duration":314},{"id":"R09","distance":1282,"duration":223}]},{"id":"R09","stationName":"台大醫院","lineNumber":"R","lineName":"淡水信義線","lat":25.041256,"lng":121.51604,"neighbors":[{"id":"R08","distance":1203,"duration":227},{"id":"R10","distance":1019,"duration":245}]},{"id":"R10","stationName":"台北車站","lineNumber":"R","lineName":"淡水信義線","lat":25.046255,"lng":121.517532,"neighbors":[{"id":"R09","distance":1727,"duration":437},{"id":"R11","distance":2321,"duration":644}]},{"id":"R11","stationName":"中山","lineNumber":"R","lineName":"淡水信義線","lat":25.052685,"lng":121.520392,"neighbors":[{"id":"R10","distance":1752,"duration":391},{"id":"R12","distance":1865,"duration":500}]},{"id":"R12","stationName":"雙連","lineNumber":"R","lineName":"淡水信義線","lat":25.057805,"lng":121.520627,"neighbors":[{"id":"R11","distance":1088,"duration":233},{"id":"R13","distance":956,"duration":225}]},{"id":"R13","stationName":"民權西路","lineNumber":"R","lineName":"淡水信義線","lat":25.062905,"lng":121.51932,"neighbors":[{"id":"R12","distance":1192,"duration":278},{"id":"R14","distance":1158,"duration":263}]},{"id":"R14","stationName":"圓山","lineNumber":"R","lineName":"淡水信義線","lat":25.071353,"lng":121.520118,"neighbors":[{"id":"R13","distance":1326,"duration":324},{"id":"R15","distance":1838,"duration":381}]},{"id":"R15","stationName":"劍潭","lineNumber":"R","lineName":"淡水信義線","lat":25.084873,"lng":121.525078,"neighbors":[{"id":"R14","distance":2904,"duration":531},{"id":"R16","distance":1550,"duration":456}]},{"id":"R16","stationName":"士林","lineNumber":"R","lineName":"淡水信義線","lat":25.093535,"lng":121.52623,"neighbors":[{"id":"R15","distance":1079,"duration":276},{"id":"R17","distance":1464,"duration":430}]},{"id":"R17","stationName":"芝山","lineNumber":"R","lineName":"淡水信義線","lat":25.10306,"lng":121.522514,"neighbors":[{"id":"R16","distance":1773,"duration":517},{"id":"R18","distance":852,"duration":205}]},{"id":"R18","stationName":"明德","lineNumber":"R","lineName":"淡水信義線","lat":25.109721,"lng":121.518848,"neighbors":[{"id":"R17","distance":1456,"duration":400},{"id":"R19","distance":649,"duration":189}]},{"id":"R19","stationName":"石牌","lineNumber":"R","lineName":"淡水信義線","lat":25.114523,"lng":121.515559,"neighbors":[{"id":"R18","distance":1073,"duration":309},{"id":"R20","distance":1272,"duration":219}]},{"id":"R20","stationName":"唭哩岸","lineNumber":"R","lineName":"淡水信義線","lat":25.120872,"lng":121.506252,"neighbors":[{"id":"R19","distance":2255,"duration":436},{"id":"R21","distance":932,"duration":140}]},{"id":"R21","stationName":"奇岩","lineNumber":"R","lineName":"淡水信義線","lat":25.125491,"lng":121.501132,"neighbors":[{"id":"R20","distance":1292,"duration":224},{"id":"R22","distance":755,"duration":130}]},{"id":"R22","stationName":"北投","lineNumber":"R","lineName":"淡水信義線","lat":25.131841,"lng":121.498633,"neighbors":[{"id":"R21","distance":755,"duration":124},{"id":"R22A","distance":1127,"duration":263}]},{"id":"R22A","stationName":"新北投","lineNumber":"R","lineName":"淡水信義線","lat":25.136933,"lng":121.50253,"neighbors":[{"id":"R22","distance":1323,"duration":336},{"id":"R23","distance":2191,"duration":460}]},{"id":"R23","stationName":"復興崗","lineNumber":"R","lineName":"淡水信義線","lat":25.137474,"lng":121.485444,"neighbors":[{"id":"R22A","distance":1877,"duration":394},{"id":"R24","distance":1788,"duration":262}]},{"id":"R24","stationName":"忠義","lineNumber":"R","lineName":"淡水信義線","lat":25.130969,"lng":121.47341,"neighbors":[{"id":"R23","distance":1507,"duration":182},{"id":"R25","distance":946,"duration":165}]},{"id":"R25","stationName":"關渡","lineNumber":"R","lineName":"淡水信義線","lat":25.125633,"lng":121.467102,"neighbors":[{"id":"R24","distance":951,"duration":180},{"id":"R26","distance":2561,"duration":431}]},{"id":"R26","stationName":"竹圍","lineNumber":"R","lineName":"淡水信義線","lat":25.13694,"lng":121.459479,"neighbors":[{"id":"R25","distance":2595,"duration":414},{"id":"R27","distance":3422,"duration":482}]},{"id":"R27","stationName":"紅樹林","lineNumber":"R","lineName":"淡水信義線","lat":25.154042,"lng":121.458872,"neighbors":[{"id":"R26","distance":1935,"duration":206},{"id":"R28","distance":2769,"duration":496}]},{"id":"R28","stationName":"淡水","lineNumber":"R","lineName":"淡水信義線","lat":25.167818,"lng":121.445561,"neighbors":[{"id":"R27","distance":2291,"duration":337}]},{"id":"G01","stationName":"新店","lineNumber":"G","lineName":"松山新店線","lat":24.957855,"lng":121.537584,"neighbors":[{"id":"G02","distance":1206,"duration":317}]},{"id":"G02","stationName":"新店區公所","lineNumber":"G","lineName":"松山新店線","lat":24.967393,"lng":121.54131,"neighbors":[{"id":"G01","distance":1150,"duration":246},{"id":"G03","distance":948,"duration":244}]},{"id":"G03","stationName":"七張","lineNumber":"G","lineName":"松山新店線","lat":24.975169,"lng":121.542942,"neighbors":[{"id":"G02","distance":1195,"duration":301},{"id":"G03A","distance":2651,"duration":483}]},{"id":"G03A","stationName":"小碧潭","lineNumber":"G","lineName":"松山新店線","lat":24.971907,"lng":121.530339,"neighbors":[{"id":"G03","distance":2532,"duration":554},{"id":"G04","distance":2472,"duration":583}]},{"id":"G04","stationName":"大坪林","lineNumber":"G","lineName":"松山新店線","lat":24.982899,"lng":121.541352,"neighbors":[{"id":"G03A","distance":3580,"duration":666},{"id":"G05","distance":1071,"duration":146}]},{"id":"G05","stationName":"景美","lineNumber":"G","lineName":"松山新店線","lat":24.9921276,"lng":121.5406037,"neighbors":[{"id":"G04","distance":2338,"duration":449},{"id":"G06","distance":1128,"duration":173}]},{"id":"G06","stationName":"萬隆","lineNumber":"G","lineName":"松山新店線","lat":25.001853,"lng":121.539051,"neighbors":[{"id":"G05","distance":1504,"duration":415},{"id":"G07","distance":1623,"duration":282}]},{"id":"G07","stationName":"公館","lineNumber":"G","lineName":"松山新店線","lat":25.014908,"lng":121.534216,"neighbors":[{"id":"G06","distance":2656,"duration":529},{"id":"G08","distance":890,"duration":145}]},{"id":"G08","stationName":"台電大樓","lineNumber":"G","lineName":"松山新店線","lat":25.020725,"lng":121.528168,"neighbors":[{"id":"G07","distance":2029,"duration":345},{"id":"G09","distance":1326,"duration":240}]},{"id":"G09","stationName":"古亭","lineNumber":"G","lineName":"松山新店線","lat":25.026357,"lng":121.522873,"neighbors":[{"id":"G08","distance":829,"duration":126},{"id":"G10","distance":1219,"duration":313}]},{"id":"G10","stationName":"中正紀念堂","lineNumber":"G","lineName":"松山新店線","lat":25.032729,"lng":121.51827,"neighbors":[{"id":"G09","distance":847,"duration":133},{"id":"G11","distance":1612,"duration":340}]},{"id":"G11","stationName":"小南門","lineNumber":"G","lineName":"松山新店線","lat":25.035547,"lng":121.510857,"neighbors":[{"id":"G10","distance":870,"duration":158},{"id":"G12","distance":992,"duration":187}]},{"id":"G12","stationName":"西門","lineNumber":"G","lineName":"松山新店線","lat":25.04209,"lng":121.508303,"neighbors":[{"id":"G11","distance":1054,"duration":209},{"id":"G13","distance":860,"duration":145}]},{"id":"G13","stationName":"北門","lineNumber":"G","lineName":"松山新店線","lat":25.049554,"lng":121.510184,"neighbors":[{"id":"G12","distance":1529,"duration":276},{"id":"G14","distance":3059,"duration":589}]},{"id":"G14","stationName":"中山","lineNumber":"G","lineName":"松山新店線","lat":25.052685,"lng":121.520392,"neighbors":[{"id":"G13","distance":1498,"duration":360},{"id":"G15","distance":2748,"duration":606}]},{"id":"G15","stationName":"松江南京","lineNumber":"G","lineName":"松山新店線","lat":25.052015,"lng":121.533075,"neighbors":[{"id":"G14","distance":1588,"duration":311},{"id":"G16","distance":1661,"duration":358}]},{"id":"G16","stationName":"南京復興","lineNumber":"G","lineName":"松山新店線","lat":25.052319,"lng":121.544011,"neighbors":[{"id":"G15","distance":1938,"duration":360},{"id":"G17","distance":1940,"duration":411}]},{"id":"G17","stationName":"台北小巨蛋","lineNumber":"G","lineName":"松山新店線","lat":25.051836,"lng":121.55153,"neighbors":[{"id":"G16","distance":1299,"duration":283},{"id":"G18","distance":2535,"duration":614}]},{"id":"G18","stationName":"南京三民","lineNumber":"G","lineName":"松山新店線","lat":25.051652,"lng":121.564708,"neighbors":[{"id":"G17","distance":1321,"duration":228},{"id":"G19","distance":2172,"duration":537}]},{"id":"G19","stationName":"松山","lineNumber":"G","lineName":"松山新店線","lat":25.050118,"lng":121.577706,"neighbors":[{"id":"G18","distance":1376,"duration":361}]},{"id":"O01","stationName":"南勢角","lineNumber":"O","lineName":"中和新蘆線","lat":24.990045,"lng":121.509237,"neighbors":[{"id":"O02","distance":723,"duration":175}]},{"id":"O02","stationName":"景安","lineNumber":"O","lineName":"中和新蘆線","lat":24.993905,"lng":121.505113,"neighbors":[{"id":"O01","distance":723,"duration":181},{"id":"O03","distance":1195,"duration":240}]},{"id":"O03","stationName":"永安市場","lineNumber":"O","lineName":"中和新蘆線","lat":25.002876,"lng":121.511231,"neighbors":[{"id":"O02","distance":1195,"duration":273},{"id":"O04","distance":2360,"duration":560}]},{"id":"O04","stationName":"頂溪","lineNumber":"O","lineName":"中和新蘆線","lat":25.013821,"lng":121.515485,"neighbors":[{"id":"O03","distance":1330,"duration":280},{"id":"O05","distance":2353,"duration":384}]},{"id":"O05","stationName":"古亭","lineNumber":"O","lineName":"中和新蘆線","lat":25.026357,"lng":121.522873,"neighbors":[{"id":"O04","distance":2466,"duration":412},{"id":"O06","distance":1812,"duration":471}]},{"id":"O06","stationName":"東門","lineNumber":"O","lineName":"中和新蘆線","lat":25.033847,"lng":121.528739,"neighbors":[{"id":"O05","distance":1539,"duration":380},{"id":"O07","distance":1718,"duration":382}]},{"id":"O07","stationName":"忠孝新生","lineNumber":"O","lineName":"中和新蘆線","lat":25.042356,"lng":121.532905,"neighbors":[{"id":"O06","distance":1750,"duration":346},{"id":"O08","distance":1075,"duration":202}]},{"id":"O08","stationName":"松江南京","lineNumber":"O","lineName":"中和新蘆線","lat":25.052015,"lng":121.533075,"neighbors":[{"id":"O07","distance":2493,"duration":541},{"id":"O09","distance":857,"duration":182}]},{"id":"O09","stationName":"行天宮","lineNumber":"O","lineName":"中和新蘆線","lat":25.059718,"lng":121.533185,"neighbors":[{"id":"O08","distance":1446,"duration":326},{"id":"O10","distance":1556,"duration":397}]},{"id":"O10","stationName":"中山國小","lineNumber":"O","lineName":"中和新蘆線","lat":25.062694,"lng":121.526419,"neighbors":[{"id":"O09","distance":985,"duration":180},{"id":"O11","distance":1244,"duration":272}]},{"id":"O11","stationName":"民權西路","lineNumber":"O","lineName":"中和新蘆線","lat":25.062905,"lng":121.51932,"neighbors":[{"id":"O10","distance":716,"duration":107},{"id":"O12","distance":671,"duration":116}]},{"id":"O12","stationName":"大橋頭","lineNumber":"O","lineName":"中和新蘆線","lat":25.063256,"lng":121.51272,"neighbors":[{"id":"O11","distance":803,"duration":262},{"id":"O13","distance":2075,"duration":384}]},{"id":"O13","stationName":"台北橋","lineNumber":"O","lineName":"中和新蘆線","lat":25.063274,"lng":121.500762,"neighbors":[{"id":"O12","distance":1676,"duration":304},{"id":"O14","distance":1073,"duration":219}]},{"id":"O14","stationName":"菜寮","lineNumber":"O","lineName":"中和新蘆線","lat":25.060274,"lng":121.492156,"neighbors":[{"id":"O13","distance":939,"duration":157},{"id":"O15","distance":1231,"duration":311}]},{"id":"O15","stationName":"三重","lineNumber":"O","lineName":"中和新蘆線","lat":25.055791,"lng":121.484725,"neighbors":[{"id":"O14","distance":907,"duration":182},{"id":"O16","distance":2077,"duration":213}]},{"id":"O16","stationName":"先嗇宮","lineNumber":"O","lineName":"中和新蘆線","lat":25.046493,"lng":121.471916,"neighbors":[{"id":"O15","distance":3410,"duration":582},{"id":"O17","distance":1558,"duration":310}]},{"id":"O17","stationName":"頭前庄","lineNumber":"O","lineName":"中和新蘆線","lat":25.039705,"lng":121.461746,"neighbors":[{"id":"O16","distance":1333,"duration":221},{"id":"O18","distance":2952,"duration":562}]},{"id":"O18","stationName":"新莊","lineNumber":"O","lineName":"中和新蘆線","lat":25.036125,"lng":121.452468,"neighbors":[{"id":"O17","distance":1037,"duration":199},{"id":"O19","distance":2266,"duration":447}]},{"id":"O19","stationName":"輔大","lineNumber":"O","lineName":"中和新蘆線","lat":25.032718,"lng":121.43547,"neighbors":[{"id":"O18","distance":1757,"duration":281},{"id":"O20","distance":1371,"duration":209}]},{"id":"O20","stationName":"丹鳳","lineNumber":"O","lineName":"中和新蘆線","lat":25.0288671,"lng":121.4227079,"neighbors":[{"id":"O19","distance":1360,"duration":220},{"id":"O21","distance":1464,"duration":277}]},{"id":"O21","stationName":"迴龍","lineNumber":"O","lineName":"中和新蘆線","lat":25.021862,"lng":121.41127,"neighbors":[{"id":"O20","distance":1689,"duration":319},{"id":"O50","distance":12466,"duration":1578}]},{"id":"O50","stationName":"三重國小","lineNumber":"O","lineName":"中和新蘆線","lat":25.070319,"lng":121.496904,"neighbors":[{"id":"O21","distance":11960,"duration":1496},{"id":"O51","distance":1291,"duration":316}]},{"id":"O51","stationName":"三和國中","lineNumber":"O","lineName":"中和新蘆線","lat":25.076859,"lng":121.486347,"neighbors":[{"id":"O50","distance":1509,"duration":355},{"id":"O52","distance":1378,"duration":304}]},{"id":"O52","stationName":"徐匯中學","lineNumber":"O","lineName":"中和新蘆線","lat":25.080728,"lng":121.479673,"neighbors":[{"id":"O51","distance":1213,"duration":299},{"id":"O53","distance":1398,"duration":284}]},{"id":"O53","stationName":"三民高中","lineNumber":"O","lineName":"中和新蘆線","lat":25.085456,"lng":121.473389,"neighbors":[{"id":"O52","distance":905,"duration":206},{"id":"O54","distance":1318,"duration":313}]},{"id":"O54","stationName":"蘆洲","lineNumber":"O","lineName":"中和新蘆線","lat":25.091554,"lng":121.464471,"neighbors":[{"id":"O53","distance":1159,"duration":214}]},{"id":"BL01","stationName":"頂埔","lineNumber":"BL","lineName":"板南線","lat":24.96012,"lng":121.4205,"neighbors":[{"id":"BL02","distance":1893,"duration":409}]},{"id":"BL02","stationName":"永寧","lineNumber":"BL","lineName":"板南線","lat":24.966726,"lng":121.436072,"neighbors":[{"id":"BL01","distance":1779,"duration":356},{"id":"BL03","distance":1236,"duration":240}]},{"id":"BL03","stationName":"土城","lineNumber":"BL","lineName":"板南線","lat":24.973094,"lng":121.444362,"neighbors":[{"id":"BL02","distance":1580,"duration":305},{"id":"BL04","distance":2173,"duration":458}]},{"id":"BL04","stationName":"海山","lineNumber":"BL","lineName":"板南線","lat":24.985339,"lng":121.448786,"neighbors":[{"id":"BL03","distance":2658,"duration":513},{"id":"BL05","distance":1686,"duration":432}]},{"id":"BL05","stationName":"亞東醫院","lineNumber":"BL","lineName":"板南線","lat":24.998037,"lng":121.452514,"neighbors":[{"id":"BL04","distance":1734,"duration":391},{"id":"BL06","distance":1581,"duration":433}]},{"id":"BL06","stationName":"府中","lineNumber":"BL","lineName":"板南線","lat":25.008619,"lng":121.459409,"neighbors":[{"id":"BL05","distance":1402,"duration":272},{"id":"BL07","distance":970,"duration":255}]},{"id":"BL07","stationName":"板橋","lineNumber":"BL","lineName":"板南線","lat":25.013618,"lng":121.462302,"neighbors":[{"id":"BL06","distance":738,"duration":160},{"id":"BL08","distance":2026,"duration":384}]},{"id":"BL08","stationName":"新埔","lineNumber":"BL","lineName":"板南線","lat":25.023738,"lng":121.468361,"neighbors":[{"id":"BL07","distance":1394,"duration":275},{"id":"BL09","distance":1635,"duration":338}]},{"id":"BL09","stationName":"江子翠","lineNumber":"BL","lineName":"板南線","lat":25.03001,"lng":121.47239,"neighbors":[{"id":"BL08","distance":814,"duration":114},{"id":"BL10","distance":3755,"duration":552}]},{"id":"BL10","stationName":"龍山寺","lineNumber":"BL","lineName":"板南線","lat":25.03528,"lng":121.499826,"neighbors":[{"id":"BL09","distance":3391,"duration":444},{"id":"BL11","distance":2067,"duration":390}]},{"id":"BL11","stationName":"西門","lineNumber":"BL","lineName":"板南線","lat":25.04209,"lng":121.508303,"neighbors":[{"id":"BL10","distance":1371,"duration":333},{"id":"BL12","distance":2462,"duration":447}]},{"id":"BL12","stationName":"台北車站","lineNumber":"BL","lineName":"板南線","lat":25.046255,"lng":121.517532,"neighbors":[{"id":"BL11","distance":2185,"duration":377},{"id":"BL13","distance":1765,"duration":354}]},{"id":"BL13","stationName":"善導寺","lineNumber":"BL","lineName":"板南線","lat":25.044823,"lng":121.523208,"neighbors":[{"id":"BL12","distance":900,"duration":202},{"id":"BL14","distance":1015,"duration":167}]},{"id":"BL14","stationName":"忠孝新生","lineNumber":"BL","lineName":"板南線","lat":25.042356,"lng":121.532905,"neighbors":[{"id":"BL13","distance":1708,"duration":295},{"id":"BL15","distance":1728,"duration":381}]},{"id":"BL15","stationName":"忠孝復興","lineNumber":"BL","lineName":"板南線","lat":25.041629,"lng":121.543767,"neighbors":[{"id":"BL14","distance":1099,"duration":190},{"id":"BL16","distance":1557,"duration":372}]},{"id":"BL16","stationName":"忠孝敦化","lineNumber":"BL","lineName":"板南線","lat":25.041478,"lng":121.551098,"neighbors":[{"id":"BL15","distance":739,"duration":139},{"id":"BL17","distance":1514,"duration":362}]},{"id":"BL17","stationName":"國父紀念館","lineNumber":"BL","lineName":"板南線","lat":25.041349,"lng":121.557802,"neighbors":[{"id":"BL16","distance":675,"duration":146},{"id":"BL18","distance":1407,"duration":335}]},{"id":"BL18","stationName":"市政府","lineNumber":"BL","lineName":"板南線","lat":25.041171,"lng":121.565228,"neighbors":[{"id":"BL17","distance":748,"duration":124},{"id":"BL19","distance":1116,"duration":217}]},{"id":"BL19","stationName":"永春","lineNumber":"BL","lineName":"板南線","lat":25.040859,"lng":121.576293,"neighbors":[{"id":"BL18","distance":1116,"duration":232},{"id":"BL20","distance":840,"duration":157}]},{"id":"BL20","stationName":"後山埤","lineNumber":"BL","lineName":"板南線","lat":25.045055,"lng":121.582522,"neighbors":[{"id":"BL19","distance":828,"duration":169},{"id":"BL21","distance":1444,"duration":223}]},{"id":"BL21","stationName":"昆陽","lineNumber":"BL","lineName":"板南線","lat":25.050461,"lng":121.593268,"neighbors":[{"id":"BL20","distance":1295,"duration":190},{"id":"BL22","distance":2061,"duration":288}]},{"id":"BL22","stationName":"南港","lineNumber":"BL","lineName":"板南線","lat":25.052116,"lng":121.606686,"neighbors":[{"id":"BL21","distance":1365,"duration":161},{"id":"BL23","distance":1821,"duration":338}]},{"id":"BL23","stationName":"南港展覽館","lineNumber":"BL","lineName":"板南線","lat":25.055288,"lng":121.6175001,"neighbors":[{"id":"BL22","distance":1283,"duration":205}]},{"id":"Y07","stationName":"大坪林","lineNumber":"Y","lineName":"環狀線","lat":24.982899,"lng":121.541352,"neighbors":[{"id":"Y08","distance":1077,"duration":299}]},{"id":"Y08","stationName":"十四張","lineNumber":"Y","lineName":"環狀線","lat":24.9829302,"lng":121.5340099,"neighbors":[{"id":"Y07","distance":1728,"duration":413},{"id":"Y09","distance":1565,"duration":272}]},{"id":"Y09","stationName":"秀朗橋","lineNumber":"Y","lineName":"環狀線","lat":24.9905493,"lng":121.5250505,"neighbors":[{"id":"Y08","distance":1892,"duration":385},{"id":"Y10","distance":1448,"duration":200}]},{"id":"Y10","stationName":"景平","lineNumber":"Y","lineName":"環狀線","lat":24.9919681,"lng":121.5165532,"neighbors":[{"id":"Y09","distance":1052,"duration":165},{"id":"Y11","distance":1335,"duration":270}]},{"id":"Y11","stationName":"景安","lineNumber":"Y","lineName":"環狀線","lat":24.993905,"lng":121.505113,"neighbors":[{"id":"Y10","distance":1246,"duration":232},{"id":"Y12","distance":1486,"duration":352}]},{"id":"Y12","stationName":"中和","lineNumber":"Y","lineName":"環狀線","lat":25.0019806,"lng":121.4960519,"neighbors":[{"id":"Y11","distance":1520,"duration":360},{"id":"Y13","distance":664,"duration":143}]},{"id":"Y13","stationName":"橋和","lineNumber":"Y","lineName":"環狀線","lat":25.0044131,"lng":121.4904608,"neighbors":[{"id":"Y12","distance":1203,"duration":250},{"id":"Y14","distance":789,"duration":126}]},{"id":"Y14","stationName":"中原","lineNumber":"Y","lineName":"環狀線","lat":25.0084104,"lng":121.4841593,"neighbors":[{"id":"Y13","distance":1570,"duration":359},{"id":"Y15","distance":1953,"duration":430}]},{"id":"Y15","stationName":"板新","lineNumber":"Y","lineName":"環狀線","lat":25.0144914,"lng":121.4722124,"neighbors":[{"id":"Y14","distance":2102,"duration":459},{"id":"Y16","distance":1116,"duration":330}]},{"id":"Y16","stationName":"板橋","lineNumber":"Y","lineName":"環狀線","lat":25.015156,"lng":121.464825,"neighbors":[{"id":"Y15","distance":862,"duration":225},{"id":"Y17","distance":1924,"duration":373}]},{"id":"Y17","stationName":"新埔民生","lineNumber":"Y","lineName":"環狀線","lat":25.026125,"lng":121.466839,"neighbors":[{"id":"Y16","distance":3067,"duration":555},{"id":"Y18","distance":2505,"duration":357}]},{"id":"Y18","stationName":"頭前庄","lineNumber":"Y","lineName":"環狀線","lat":25.039735,"lng":121.461655,"neighbors":[{"id":"Y17","distance":1975,"duration":319},{"id":"Y19","distance":1401,"duration":242}]},{"id":"Y19","stationName":"幸福","lineNumber":"Y","lineName":"環狀線","lat":25.050282,"lng":121.460216,"neighbors":[{"id":"Y18","distance":1869,"duration":389},{"id":"Y20","distance":1279,"duration":228}]},{"id":"Y20","stationName":"新北產業園區","lineNumber":"Y","lineName":"環狀線","lat":25.0615483,"lng":121.4599257,"neighbors":[{"id":"Y19","distance":1667,"duration":358}]},{"id":"A1","stationName":"台北車站","lineNumber":"A","lineName":"機場線","lat":25.0491868,"lng":121.515245,"neighbors":[{"id":"A2","distance":4989,"duration":593}]},{"id":"A2","stationName":"三重","lineNumber":"A","lineName":"機場線","lat":25.0552963,"lng":121.4813901,"neighbors":[{"id":"A1","distance":4742,"duration":737},{"id":"A3","distance":5836,"duration":681}]},{"id":"A3","stationName":"新北產業園區","lineNumber":"A","lineName":"機場線","lat":25.061716,"lng":121.4567028,"neighbors":[{"id":"A2","distance":3953,"duration":546},{"id":"A4","distance":1794,"duration":210}]},{"id":"A4","stationName":"新莊副都心","lineNumber":"A","lineName":"機場線","lat":25.0591305,"lng":121.4434732,"neighbors":[{"id":"A3","distance":1971,"duration":305},{"id":"A5","distance":1220,"duration":205}]},{"id":"A5","stationName":"泰山","lineNumber":"A","lineName":"機場線","lat":25.0532726,"lng":121.4373407,"neighbors":[{"id":"A4","distance":1605,"duration":297},{"id":"A6","distance":3297,"duration":470}]},{"id":"A6","stationName":"泰山貴和","lineNumber":"A","lineName":"機場線","lat":25.0334752,"lng":121.4201443,"neighbors":[{"id":"A5","distance":3421,"duration":555},{"id":"A7","distance":5252,"duration":619}]},{"id":"A7","stationName":"體育大學","lineNumber":"A","lineName":"機場線","lat":25.041246,"lng":121.3832453,"neighbors":[{"id":"A6","distance":5652,"duration":684},{"id":"A8","distance":3498,"duration":575}]},{"id":"A8","stationName":"長庚醫院","lineNumber":"A","lineName":"機場線","lat":25.0604363,"lng":121.3679403,"neighbors":[{"id":"A7","distance":3479,"duration":482},{"id":"A9","distance":1828,"duration":495}]},{"id":"A9","stationName":"林口","lineNumber":"A","lineName":"機場線","lat":25.0665023,"lng":121.3590943,"neighbors":[{"id":"A8","distance":1922,"duration":406},{"id":"A10","distance":10611,"duration":1186}]},{"id":"A10","stationName":"山鼻","lineNumber":"A","lineName":"機場線","lat":25.0803514,"lng":121.2834868,"neighbors":[{"id":"A9","distance":10685,"duration":1237},{"id":"A11","distance":3309,"duration":409}]},{"id":"A11","stationName":"坑口","lineNumber":"A","lineName":"機場線","lat":25.086516,"lng":121.2642601,"neighbors":[{"id":"A10","distance":3070,"duration":380},{"id":"A12","distance":4601,"duration":522}]},{"id":"A12","stationName":"機場第一航廈","lineNumber":"A","lineName":"機場線","lat":25.081385,"lng":121.2353293,"neighbors":[{"id":"A11","distance":5292,"duration":594},{"id":"A13","distance":701,"duration":47}]},{"id":"A13","stationName":"機場第二航廈","lineNumber":"A","lineName":"機場線","lat":25.0772703,"lng":121.230063,"neighbors":[{"id":"A12","distance":8052,"duration":557},{"id":"A14a","distance":5746,"duration":579}]},{"id":"A14a","stationName":"機場旅館","lineNumber":"A","lineName":"機場線","lat":25.0692598,"lng":121.2187503,"neighbors":[{"id":"A13","distance":2904,"duration":318},{"id":"A15","distance":3225,"duration":473}]},{"id":"A15","stationName":"大園","lineNumber":"A","lineName":"機場線","lat":25.0560465,"lng":121.2082923,"neighbors":[{"id":"A14a","distance":3210,"duration":472},{"id":"A16","distance":4020,"duration":355}]},{"id":"A16","stationName":"橫山","lineNumber":"A","lineName":"機場線","lat":25.0460284,"lng":121.2045017,"neighbors":[{"id":"A15","distance":3174,"duration":302},{"id":"A17","distance":3643,"duration":358}]},{"id":"A17","stationName":"領航","lineNumber":"A","lineName":"機場線","lat":25.0189695,"lng":121.2136874,"neighbors":[{"id":"A16","distance":3472,"duration":286},{"id":"A18","distance":1230,"duration":264}]},{"id":"A18","stationName":"高鐵桃園站","lineNumber":"A","lineName":"機場線","lat":25.013762,"lng":121.2119733,"neighbors":[{"id":"A17","distance":1061,"duration":230},{"id":"A19","distance":1887,"duration":309}]},{"id":"A19","stationName":"桃園體育園區","lineNumber":"A","lineName":"機場線","lat":25.001996,"lng":121.2013063,"neighbors":[{"id":"A18","distance":3553,"duration":535},{"id":"A20","distance":3339,"duration":389}]},{"id":"A20","stationName":"興南","lineNumber":"A","lineName":"機場線","lat":24.9802492,"lng":121.2140726,"neighbors":[{"id":"A19","distance":3469,"duration":431},{"id":"A21","distance":1821,"duration":226}]},{"id":"A21","stationName":"環北","lineNumber":"A","lineName":"機場線","lat":24.967381,"lng":121.2197492,"neighbors":[{"id":"A20","distance":4452,"duration":538}]}]